[{"animal_name":"Brown brocket","longitude":32.3448813,"latitude":49.660465,"date":-1335689972,"version":"9.77","validated":false,"priority":0.43},
    {"animal_name":"Puffin, horned","longitude":-99.1732936,"latitude":19.602311,"date":-1398164147,"version":"2.2.4","validated":true,"priority":0.56},
    {"animal_name":"Red-capped cardinal","longitude":105.8215718,"latitude":21.5743109,"date":-1183373450,"version":"0.6.8","validated":false,"priority":0.75},
    {"animal_name":"Boa, emerald green tree","longitude":-90.6793295,"latitude":14.6072726,"date":-317093191,"version":"7.65","validated":false,"priority":0.8},
    {"animal_name":"Baboon, olive","longitude":23.5500468,"latitude":55.8117129,"date":-1473528544,"version":"0.46","validated":false,"priority":0.16},
    {"animal_name":"Orca","longitude":-83.0683519,"latitude":40.0506279,"date":235502449,"version":"2.2","validated":false,"priority":0.47},
    {"animal_name":"Possum, ring-tailed","longitude":99.4819782,"latitude":18.2868231,"date":-1774014772,"version":"6.7","validated":false,"priority":0.29},
    {"animal_name":"Gull, dusky","longitude":48.4345577,"latitude":41.4266886,"date":-1263369172,"version":"9.00","validated":true,"priority":0.2},
    {"animal_name":"Armadillo, nine-banded","longitude":106.5701927,"latitude":-7.1221059,"date":-1129447692,"version":"0.5.7","validated":false,"priority":0.39},
    {"animal_name":"Raccoon dog","longitude":-67.8823146,"latitude":-15.4979257,"date":-1503939276,"version":"6.8","validated":false,"priority":0.7},
    {"animal_name":"Wombat, southern hairy-nosed","longitude":30.4754399,"latitude":59.76039,"date":-2146235095,"version":"0.5.2","validated":true,"priority":0.38},
    {"animal_name":"Hawk, ferruginous","longitude":14.424426,"latitude":35.910325,"date":58248606,"version":"6.75","validated":false,"priority":0.5},
    {"animal_name":"Pacific gull","longitude":-97.5294628,"latitude":25.8263535,"date":-1287832293,"version":"0.4.0","validated":false,"priority":0.68},
    {"animal_name":"Tortoise, indian star","longitude":-58.601544,"latitude":-34.6906944,"date":377831373,"version":"0.15","validated":true,"priority":0.51},
    {"animal_name":"Tammar wallaby","longitude":15.4759099,"latitude":46.019373,"date":464126601,"version":"3.48","validated":false,"priority":0.29},
    {"animal_name":"Francolin, swainson's","longitude":99.0571089,"latitude":9.2964349,"date":-29933383,"version":"3.40","validated":false,"priority":0.13}]